time_stamp, lat, lon, pitch, roll, heading, serial_number, cam_position
1.642759926580110788e+09,4.574560782687068183e+01,5.086098167589902630e+00,3.470000000000000000e+02,0.000000000000000000e+00,8.462618781328202999e+01,2.101995000000000000e+07,1.000000000000000000e+00
1.642759926580481052e+09,4.574560780527194481e+01,5.086098170675437125e+00,3.470000000000000000e+02,0.000000000000000000e+00,2.646261470842361518e+02,2.101994900000000000e+07,4.000000000000000000e+00
1.642759926780114889e+09,4.574559615996480488e+01,5.086099834290743082e+00,3.470000000000000000e+02,0.000000000000000000e+00,8.460418736219406810e+01,2.101995000000000000e+07,1.000000000000000000e+00
1.642759926780485630e+09,4.574559613833825011e+01,5.086099837380250399e+00,3.470000000000000000e+02,0.000000000000000000e+00,2.646041465806961241e+02,2.101994900000000000e+07,4.000000000000000000e+00
1.642759926980119705e+09,4.574558449301719776e+01,5.086101500997543212e+00,3.470000000000000000e+02,0.000000000000000000e+00,8.458218683242799329e+01,2.101995000000000000e+07,1.000000000000000000e+00
1.642759926980489254e+09,4.574558447146018381e+01,5.086101504077117141e+00,3.470000000000000000e+02,0.000000000000000000e+00,2.645821461820602281e+02,2.101994900000000000e+07,4.000000000000000000e+00
1.642759927180124760e+09,4.574557222563982606e+01,5.086102867498397906e+00,3.470000000000000000e+02,0.000000000000000000e+00,8.463403742790222850e+01,2.101995000000000000e+07,1.000000000000000000e+00
1.642759927180494785e+09,4.574557220282157743e+01,5.086102869965235307e+00,3.470000000000000000e+02,0.000000000000000000e+00,2.646341484355926923e+02,2.101994900000000000e+07,4.000000000000000000e+00
1.642759927380128622e+09,4.574555989206830731e+01,5.086104200857480606e+00,3.470000000000000000e+02,0.000000000000000000e+00,8.469403858661652862e+01,2.101995000000000000e+07,1.000000000000000000e+00
1.642759927380498648e+09,4.574555986925005868e+01,5.086104203324318007e+00,3.470000000000000000e+02,0.000000000000000000e+00,2.646941495943069640e+02,2.101994900000000000e+07,4.000000000000000000e+00
1.642759927580133677e+09,4.574554755842328291e+01,5.086105534224510727e+00,3.470000000000000000e+02,0.000000000000000000e+00,8.475404010295866897e+01,2.101995000000000000e+07,1.000000000000000000e+00
1.642759927580503464e+09,4.574554753561973541e+01,5.086105536689758289e+00,3.470000000000000000e+02,0.000000000000000000e+00,2.647541510391235420e+02,2.101994900000000000e+07,4.000000000000000000e+00
1.642759927780138016e+09,4.574553522482236190e+01,5.086106867586772218e+00,3.470000000000000000e+02,0.000000000000000000e+00,8.481404140472412223e+01,2.101995000000000000e+07,1.000000000000000000e+00
1.642759927780508041e+09,4.574553520200412038e+01,5.086106870053609619e+00,3.470000000000000000e+02,0.000000000000000000e+00,2.648141524124145576e+02,2.101994900000000000e+07,4.000000000000000000e+00
1.642759927980143070e+09,4.574552289117733750e+01,5.086108200953801450e+00,3.470000000000000000e+02,0.000000000000000000e+00,8.487404292106629100e+01,2.101995000000000000e+07,1.000000000000000000e+00
1.642759927980512619e+09,4.574552286838849824e+01,5.086108203417460061e+00,3.470000000000000000e+02,0.000000000000000000e+00,2.648741537857055732e+02,2.101994900000000000e+07,4.000000000000000000e+00
1.642759928180147409e+09,4.574550995708505496e+01,5.086109684438904210e+00,3.470000000000000000e+02,0.000000000000000000e+00,8.489080884456635090e+01,2.101995000000000000e+07,1.000000000000000000e+00
1.642759928180517197e+09,4.574550993304888635e+01,5.086109687212308827e+00,3.470000000000000000e+02,0.000000000000000000e+00,2.648908310317992800e+02,2.101994900000000000e+07,4.000000000000000000e+00
1.642759928380151749e+09,4.574549695680300943e+01,5.086111184471448610e+00,3.470000000000000000e+02,0.000000000000000000e+00,8.490280910491944155e+01,2.101995000000000000e+07,1.000000000000000000e+00
1.642759928380521536e+09,4.574549693276683371e+01,5.086111187244852339e+00,3.470000000000000000e+02,0.000000000000000000e+00,2.649028312921524275e+02,2.101994900000000000e+07,4.000000000000000000e+00
1.642759928580156803e+09,4.574548395647446597e+01,5.086112684509356718e+00,3.470000000000000000e+02,0.000000000000000000e+00,8.491480940818786394e+01,2.101995000000000000e+07,1.000000000000000000e+00
1.642759928580526590e+09,4.574548393243829736e+01,5.086112687282761335e+00,3.470000000000000000e+02,0.000000000000000000e+00,2.649148315954208215e+02,2.101994900000000000e+07,4.000000000000000000e+00
1.642759928780160666e+09,4.574547095622341430e+01,5.086114184538324423e+00,3.470000000000000000e+02,0.000000000000000000e+00,8.492680963993072396e+01,2.101995000000000000e+07,1.000000000000000000e+00
1.642759928780531406e+09,4.574547093212525084e+01,5.086114187318881541e+00,3.470000000000000000e+02,0.000000000000000000e+00,2.649268318843841143e+02,2.101994900000000000e+07,4.000000000000000000e+00
1.642759928980165958e+09,4.574545795587937391e+01,5.086115684578021323e+00,3.470000000000000000e+02,0.000000000000000000e+00,8.493880995750427587e+01,2.101995000000000000e+07,1.000000000000000000e+00
1.642759928980535746e+09,4.574545793184320530e+01,5.086115687351425940e+00,3.470000000000000000e+02,0.000000000000000000e+00,2.649388321447372618e+02,2.101994900000000000e+07,4.000000000000000000e+00
1.642759929180170536e+09,4.574544495558182433e+01,5.086117184612353626e+00,3.470000000000000000e+02,0.000000000000000000e+00,8.495081023216246763e+01,2.101995000000000000e+07,1.000000000000000000e+00
1.642759929180540085e+09,4.574544493156115266e+01,5.086117187383969451e+00,3.470000000000000000e+02,0.000000000000000000e+00,2.649508324050902957e+02,2.101994900000000000e+07,4.000000000000000000e+00
1.642759929380174875e+09,4.574543195529977879e+01,5.086118684644898025e+00,3.470000000000000000e+02,0.000000000000000000e+00,8.496281049251555828e+01,2.101995000000000000e+07,1.000000000000000000e+00
1.642759929380544662e+09,4.574543193126361018e+01,5.086118687418301754e+00,3.470000000000000000e+02,0.000000000000000000e+00,2.649628326797485443e+02,2.101994900000000000e+07,4.000000000000000000e+00
1.642759929580179214e+09,4.574541895501772615e+01,5.086120184677441536e+00,3.470000000000000000e+02,0.000000000000000000e+00,8.497481075286864893e+01,2.101995000000000000e+07,1.000000000000000000e+00
1.642759929580549955e+09,4.574541893091956979e+01,5.086120187457998654e+00,3.470000000000000000e+02,0.000000000000000000e+00,2.649748329973220962e+02,2.101994900000000000e+07,4.000000000000000000e+00
1.642759929780184031e+09,4.574540595470468674e+01,5.086121684713561741e+00,3.470000000000000000e+02,0.000000000000000000e+00,8.498681104183197021e+01,2.101995000000000000e+07,1.000000000000000000e+00
1.642759929780554533e+09,4.574540593062202731e+01,5.086121687492330956e+00,3.470000000000000000e+02,0.000000000000000000e+00,2.649868332719802879e+02,2.101994900000000000e+07,4.000000000000000000e+00
1.642759929980189323e+09,4.574539295436064634e+01,5.086123184753258641e+00,3.470000000000000000e+02,0.000000000000000000e+00,8.499881135940552213e+01,2.101995000000000000e+07,1.000000000000000000e+00
1.642759929980558634e+09,4.574539293035547161e+01,5.086123187523086564e+00,3.470000000000000000e+02,0.000000000000000000e+00,2.649988335180282775e+02,2.101994900000000000e+07,4.000000000000000000e+00
1.642759930180193186e+09,4.574537935346563700e+01,5.086124534621238702e+00,3.470000000000000000e+02,0.000000000000000000e+00,8.496396136283874512e+01,2.101995000000000000e+07,1.000000000000000000e+00
1.642759930180563211e+09,4.574537932818055452e+01,5.086124537088076103e+00,3.470000000000000000e+02,0.000000000000000000e+00,2.649638873577117693e+02,2.101994900000000000e+07,4.000000000000000000e+00
1.642759930380198479e+09,4.574536568643728884e+01,5.086125867989857774e+00,3.470000000000000000e+02,0.000000000000000000e+00,8.492396030426024822e+01,2.101995000000000000e+07,1.000000000000000000e+00
1.642759930380568504e+09,4.574536566115220637e+01,5.086125870456695175e+00,3.470000000000000000e+02,0.000000000000000000e+00,2.649238862991333008e+02,2.101994900000000000e+07,4.000000000000000000e+00
1.642759930580202818e+09,4.574535201947411167e+01,5.086127201352119265e+00,3.470000000000000000e+02,0.000000000000000000e+00,8.488395943641663166e+01,2.101995000000000000e+07,1.000000000000000000e+00
1.642759930580572605e+09,4.574535199420531484e+01,5.086127203817367715e+00,3.470000000000000000e+02,0.000000000000000000e+00,2.648838854789734114e+02,2.101994900000000000e+07,4.000000000000000000e+00
1.642759930780206680e+09,4.574533835254351288e+01,5.086128534711201965e+00,3.470000000000000000e+02,0.000000000000000000e+00,8.484395866394044106e+01,2.101995000000000000e+07,1.000000000000000000e+00
1.642759930780577660e+09,4.574533832719325943e+01,5.086128537184396947e+00,3.470000000000000000e+02,0.000000000000000000e+00,2.648438844680786133e+02,2.101994900000000000e+07,4.000000000000000000e+00
1.642759930980211973e+09,4.574532468551516473e+01,5.086129868079821037e+00,3.470000000000000000e+02,0.000000000000000000e+00,8.480395760536194416e+01,2.101995000000000000e+07,1.000000000000000000e+00
1.642759930980581760e+09,4.574532466024636790e+01,5.086129870545069487e+00,3.470000000000000000e+02,0.000000000000000000e+00,2.648038836479187239e+02,2.101994900000000000e+07,4.000000000000000000e+00
1.642759931180216789e+09,4.574531101851940207e+01,5.086131501806576694e+00,3.470000000000000000e+02,0.000000000000000000e+00,8.480901083946227459e+01,2.101995000000000000e+07,1.000000000000000000e+00
1.642759931180586576e+09,4.574531099325060524e+01,5.086131504888137478e+00,3.470000000000000000e+02,0.000000000000000000e+00,2.648090293288231010e+02,2.101994900000000000e+07,4.000000000000000000e+00
1.642759931380220652e+09,4.574529735158880328e+01,5.086133168505430291e+00,3.470000000000000000e+02,0.000000000000000000e+00,8.481901103258132935e+01,2.101995000000000000e+07,1.000000000000000000e+00
1.642759931380590677e+09,4.574529732630372081e+01,5.086133171588977042e+00,3.470000000000000000e+02,0.000000000000000000e+00,2.648190295338630449e+02,2.101994900000000000e+07,4.000000000000000000e+00
1.642759931580225945e+09,4.574528368456045513e+01,5.086134835216204131e+00,3.470000000000000000e+02,0.000000000000000000e+00,8.482901129722594646e+01,2.101995000000000000e+07,1.000000000000000000e+00
1.642759931580595732e+09,4.574528365929166540e+01,5.086134838297764027e+00,3.470000000000000000e+02,0.000000000000000000e+00,2.648290297865867728e+02,2.101994900000000000e+07,4.000000000000000000e+00
1.642759931780230522e+09,4.574527001758098521e+01,5.086136501921018294e+00,3.470000000000000000e+02,0.000000000000000000e+00,8.483901152610778240e+01,2.101995000000000000e+07,1.000000000000000000e+00
1.642759931780600309e+09,4.574526999231219548e+01,5.086136505002578190e+00,3.470000000000000000e+02,0.000000000000000000e+00,2.648390300154686088e+02,2.101994900000000000e+07,4.000000000000000000e+00
1.642759931980234861e+09,4.574525635061780804e+01,5.086138168623844713e+00,3.470000000000000000e+02,0.000000000000000000e+00,8.484901174306870075e+01,2.101995000000000000e+07,1.000000000000000000e+00
1.642759931980604649e+09,4.574525632534901121e+01,5.086138171705404609e+00,3.470000000000000000e+02,0.000000000000000000e+00,2.648490302324295271e+02,2.101994900000000000e+07,4.000000000000000000e+00
1.642759932180239439e+09,4.574524208284020688e+01,5.086139835328658876e+00,3.470000000000000000e+02,0.000000000000000000e+00,8.487883831024169012e+01,2.101995000000000000e+07,1.000000000000000000e+00
1.642759932180609226e+09,4.574524205633878893e+01,5.086139838410218772e+00,3.470000000000000000e+02,0.000000000000000000e+00,2.648788974761962436e+02,2.101994900000000000e+07,4.000000000000000000e+00
1.642759932380243778e+09,4.574522774919589096e+01,5.086141502031485295e+00,3.470000000000000000e+02,0.000000000000000000e+00,8.491083900451658906e+01,2.101995000000000000e+07,1.000000000000000000e+00
1.642759932380613565e+09,4.574522772269447302e+01,5.086141505113045191e+00,3.470000000000000000e+02,0.000000000000000000e+00,2.649108981704711709e+02,2.101994900000000000e+07,4.000000000000000000e+00
1.642759932580248594e+09,4.574521341551740505e+01,5.086143168738286313e+00,3.470000000000000000e+02,0.000000000000000000e+00,8.494283977508544581e+01,2.101995000000000000e+07,1.000000000000000000e+00
1.642759932580618620e+09,4.574521338899890566e+01,5.086143171821833064e+00,3.470000000000000000e+02,0.000000000000000000e+00,2.649428989791870208e+02,2.101994900000000000e+07,4.000000000000000000e+00
1.642759932780253649e+09,4.574519908182183769e+01,5.086144835447073298e+00,3.470000000000000000e+02,0.000000000000000000e+00,8.497484058380126726e+01,2.101995000000000000e+07,1.000000000000000000e+00
1.642759932780623436e+09,4.574519905532041975e+01,5.086144838528633194e+00,3.470000000000000000e+02,0.000000000000000000e+00,2.649748997497558776e+02,2.101994900000000000e+07,4.000000000000000000e+00
1.642759932980257511e+09,4.574518474821169889e+01,5.086146502145926895e+00,3.470000000000000000e+02,0.000000000000000000e+00,8.500684120178220837e+01,2.101995000000000000e+07,1.000000000000000000e+00
1.642759932980628014e+09,4.574518472165902239e+01,5.086146505233447357e+00,3.470000000000000000e+02,0.000000000000000000e+00,2.650069004821776844e+02,2.101994900000000000e+07,4.000000000000000000e+00
1.642759933180263042e+09,4.574516966338594415e+01,5.086148319077889113e+00,3.470000000000000000e+02,0.000000000000000000e+00,8.496853950023651691e+01,2.101995000000000000e+07,1.000000000000000000e+00
1.642759933180632353e+09,4.574516963537990932e+01,5.086148322463234450e+00,3.470000000000000000e+02,0.000000000000000000e+00,2.649684545588493165e+02,2.101994900000000000e+07,4.000000000000000000e+00
1.642759933380267620e+09,4.574515449637214459e+01,5.086150152453184248e+00,3.470000000000000000e+02,0.000000000000000000e+00,8.492253844738004886e+01,2.101995000000000000e+07,1.000000000000000000e+00
1.642759933380637646e+09,4.574515446831186694e+01,5.086150155845086118e+00,3.470000000000000000e+02,0.000000000000000000e+00,2.649224533414840721e+02,2.101994900000000000e+07,4.000000000000000000e+00
1.642759933580271721e+09,4.574513932939449745e+01,5.086151985824108657e+00,3.470000000000000000e+02,0.000000000000000000e+00,8.487653750419616472e+01,2.101995000000000000e+07,1.000000000000000000e+00
1.642759933580642223e+09,4.574513930129806027e+01,5.086151989220381253e+00,3.470000000000000000e+02,0.000000000000000000e+00,2.648764522886276609e+02,2.101994900000000000e+07,4.000000000000000000e+00
1.642759933780275822e+09,4.574512416241685742e+01,5.086153819195032177e+00,3.470000000000000000e+02,0.000000000000000000e+00,8.483053656101228057e+01,2.101995000000000000e+07,1.000000000000000000e+00
1.642759933780646563e+09,4.574512413430233693e+01,5.086153822593490581e+00,3.470000000000000000e+02,0.000000000000000000e+00,2.648304512906074706e+02,2.101994900000000000e+07,4.000000000000000000e+00
1.642759933980280399e+09,4.574510899540305076e+01,5.086155652570327312e+00,3.470000000000000000e+02,0.000000000000000000e+00,8.478453550815581252e+01,2.101995000000000000e+07,1.000000000000000000e+00
1.642759933980650663e+09,4.574510896732469689e+01,5.086155655964414990e+00,3.470000000000000000e+02,0.000000000000000000e+00,2.647844503474235580e+02,2.101994900000000000e+07,4.000000000000000000e+00
1.642759934180284977e+09,4.574509382838924409e+01,5.086157485945622447e+00,3.470000000000000000e+02,0.000000000000000000e+00,8.473853445529937289e+01,2.101995000000000000e+07,1.000000000000000000e+00
1.642759934180655479e+09,4.574509380029280692e+01,5.086157489341895044e+00,3.470000000000000000e+02,0.000000000000000000e+00,2.647384492397308122e+02,2.101994900000000000e+07,4.000000000000000000e+00
1.642759934380289793e+09,4.574507866135736123e+01,5.086159319323102501e+00,3.470000000000000000e+02,0.000000000000000000e+00,8.469253334760665552e+01,2.101995000000000000e+07,1.000000000000000000e+00
1.642759934380659819e+09,4.574507863329708357e+01,5.086159322715004372e+00,3.470000000000000000e+02,0.000000000000000000e+00,2.646924482417106788e+02,2.101994900000000000e+07,4.000000000000000000e+00
1.642759934580294371e+09,4.574506349434356167e+01,5.086161152698397636e+00,3.470000000000000000e+02,0.000000000000000000e+00,8.464653229475021590e+01,2.101995000000000000e+07,1.000000000000000000e+00
1.642759934580664635e+09,4.574506346626520070e+01,5.086161156092485314e+00,3.470000000000000000e+02,0.000000000000000000e+00,2.646464471340179898e+02,2.101994900000000000e+07,4.000000000000000000e+00
1.642759934780299902e+09,4.574504832725743597e+01,5.086162986082435111e+00,3.470000000000000000e+02,0.000000000000000000e+00,8.460053102254869373e+01,2.101995000000000000e+07,1.000000000000000000e+00
1.642759934780669451e+09,4.574504829923331783e+01,5.086162989469965368e+00,3.470000000000000000e+02,0.000000000000000000e+00,2.646004460263252440e+02,2.101994900000000000e+07,4.000000000000000000e+00
1.642759934980304003e+09,4.574503316027979594e+01,5.086164819453358632e+00,3.470000000000000000e+02,0.000000000000000000e+00,8.455453007936478116e+01,2.101995000000000000e+07,1.000000000000000000e+00
1.642759934980673552e+09,4.574503313225567780e+01,5.086164822840889777e+00,3.470000000000000000e+02,0.000000000000000000e+00,2.645544450831413315e+02,2.101994900000000000e+07,4.000000000000000000e+00
1.642759935180308342e+09,4.574501784302711371e+01,5.086166803083419730e+00,3.470000000000000000e+02,0.000000000000000000e+00,8.446345199584962415e+01,2.101995000000000000e+07,1.000000000000000000e+00
1.642759935180678606e+09,4.574501781464020667e+01,5.086166806786060590e+00,3.470000000000000000e+02,0.000000000000000000e+00,2.644632742691039766e+02,2.101994900000000000e+07,4.000000000000000000e+00
1.642759935380312920e+09,4.574500250934283230e+01,5.086168803129196725e+00,3.470000000000000000e+02,0.000000000000000000e+00,8.436744979858397642e+01,2.101995000000000000e+07,1.000000000000000000e+00
1.642759935380683661e+09,4.574500248091936072e+01,5.086168806836605327e+00,3.470000000000000000e+02,0.000000000000000000e+00,2.643672718429565407e+02,2.101994900000000000e+07,4.000000000000000000e+00
1.642759935580317974e+09,4.574498717562198635e+01,5.086170803179740574e+00,3.470000000000000000e+02,0.000000000000000000e+00,8.427144737243651207e+01,2.101995000000000000e+07,1.000000000000000000e+00
1.642759935580688238e+09,4.574498714723507220e+01,5.086170806882381434e+00,3.470000000000000000e+02,0.000000000000000000e+00,2.642712696456909498e+02,2.101994900000000000e+07,4.000000000000000000e+00
1.642759935780322552e+09,4.574497184193769783e+01,5.086172803225517569e+00,3.470000000000000000e+02,0.000000000000000000e+00,8.417544517517089275e+01,2.101995000000000000e+07,1.000000000000000000e+00
1.642759935780692339e+09,4.574497181358734821e+01,5.086172806923389800e+00,3.470000000000000000e+02,0.000000000000000000e+00,2.641752676773071471e+02,2.101994900000000000e+07,4.000000000000000000e+00
1.642759935980326653e+09,4.574495650828997384e+01,5.086174803266525046e+00,3.470000000000000000e+02,0.000000000000000000e+00,8.407944320678709005e+01,2.101995000000000000e+07,1.000000000000000000e+00
1.642759935980697393e+09,4.574495647986650226e+01,5.086174806973933649e+00,3.470000000000000000e+02,0.000000000000000000e+00,2.640792652511596543e+02,2.101994900000000000e+07,4.000000000000000000e+00
1.642759936180331469e+09,4.574494087403495968e+01,5.086176803314685912e+00,3.470000000000000000e+02,0.000000000000000000e+00,8.400688398599623952e+01,2.101995000000000000e+07,1.000000000000000000e+00
1.642759936180701971e+09,4.574494084501226610e+01,5.086176807019710644e+00,3.470000000000000000e+02,0.000000000000000000e+00,2.640067543101311003e+02,2.101994900000000000e+07,4.000000000000000000e+00
1.642759936380335808e+09,4.574492520702838760e+01,5.086178803358078149e+00,3.470000000000000000e+02,0.000000000000000000e+00,8.393688246726989632e+01,2.101995000000000000e+07,1.000000000000000000e+00
1.642759936380335808e+09,4.574492520702838760e+01,5.086178803358078149e+00,3.470000000000000000e+02,0.000000000000000000e+00,8.393688246726989632e+01,2.101995000000000000e+07,1.000000000000000000e+00
1.642759936380706549e+09,4.574492517798702096e+01,5.086178807065486751e+00,3.470000000000000000e+02,0.000000000000000000e+00,2.639367527079582487e+02,2.101994900000000000e+07,4.000000000000000000e+00
1.642759936580340385e+09,4.574490954000314247e+01,5.086180803403854256e+00,3.470000000000000000e+02,0.000000000000000000e+00,8.386688086509704476e+01,2.101995000000000000e+07,1.000000000000000000e+00
1.642759936580711126e+09,4.574490951096176872e+01,5.086180807111263746e+00,3.470000000000000000e+02,0.000000000000000000e+00,2.638667511057853972e+02,2.101994900000000000e+07,4.000000000000000000e+00
1.642759936780345678e+09,4.574489387292186393e+01,5.086182803456783752e+00,3.470000000000000000e+02,0.000000000000000000e+00,8.379687901258469651e+01,2.101995000000000000e+07,1.000000000000000000e+00
1.642759936780715466e+09,4.574489384395520375e+01,5.086182807154655983e+00,3.470000000000000000e+02,0.000000000000000000e+00,2.637967495870590255e+02,2.101994900000000000e+07,4.000000000000000000e+00
1.642759936980350018e+09,4.574487820591529186e+01,5.086184803500175988e+00,3.470000000000000000e+02,0.000000000000000000e+00,8.372687749385832490e+01,2.101995000000000000e+07,1.000000000000000000e+00
1.642759936980719805e+09,4.574487817694863168e+01,5.086184807198048219e+00,3.470000000000000000e+02,0.000000000000000000e+00,2.637267480683326539e+02,2.101994900000000000e+07,4.000000000000000000e+00
1.642759937180354834e+09,4.574486223827997833e+01,5.086187404731115080e+00,3.470000000000000000e+02,0.000000000000000000e+00,8.358834097146987574e+01,2.101995000000000000e+07,1.000000000000000000e+00
1.642759937180724382e+09,4.574486220871607856e+01,5.086187409658432301e+00,3.470000000000000000e+02,0.000000000000000000e+00,2.635880712008475939e+02,2.101994900000000000e+07,4.000000000000000000e+00
1.642759937380359411e+09,4.574484623791376947e+01,5.086190071458816853e+00,3.470000000000000000e+02,0.000000000000000000e+00,8.344233762979507674e+01,2.101995000000000000e+07,1.000000000000000000e+00
1.642759937380742788e+09,4.574484620724360440e+01,5.086190076570511032e+00,3.470000000000000000e+02,0.000000000000000000e+00,2.634420577645302046e+02,2.101994900000000000e+07,4.000000000000000000e+00
1.642759937580363989e+09,4.574483023754756061e+01,5.086192738186518625e+00,3.470000000000000000e+02,0.000000000000000000e+00,8.329633428812027773e+01,2.101995000000000000e+07,1.000000000000000000e+00
1.642759937580733538e+09,4.574483020798365374e+01,5.086192743113835846e+00,3.470000000000000000e+02,0.000000000000000000e+00,2.632960645174980527e+02,2.101994900000000000e+07,4.000000000000000000e+00
1.642759937780369043e+09,4.574481423714319561e+01,5.086195404920577978e+00,3.470000000000000000e+02,0.000000000000000000e+00,8.315033059835434415e+01,2.101995000000000000e+07,1.000000000000000000e+00
1.642759937780738592e+09,4.574481420757929584e+01,5.086195409847895199e+00,3.470000000000000000e+02,0.000000000000000000e+00,2.631500608277320907e+02,2.101994900000000000e+07,4.000000000000000000e+00
1.642759937980372906e+09,4.574479823683420676e+01,5.086198071638742491e+00,3.470000000000000000e+02,0.000000000000000000e+00,8.300432777881621860e+01,2.101995000000000000e+07,1.000000000000000000e+00
1.642759937980743647e+09,4.574479820717493794e+01,5.086198076581954552e+00,3.470000000000000000e+02,0.000000000000000000e+00,2.630040571379661287e+02,2.101994900000000000e+07,4.000000000000000000e+00
1.642759938180377960e+09,4.574478223642984887e+01,5.086200287427901756e+00,3.470000000000000000e+02,0.000000000000000000e+00,8.327499717712402116e+01,2.101995000000000000e+07,1.000000000000000000e+00
1.642759938180747986e+09,4.574478220682780005e+01,5.086200291436512977e+00,3.470000000000000000e+02,0.000000000000000000e+00,2.632755818176269713e+02,2.101994900000000000e+07,4.000000000000000000e+00
1.642759938380381823e+09,4.574476623612086001e+01,5.086202454136411255e+00,3.470000000000000000e+02,0.000000000000000000e+00,8.359100327968599231e+01,2.101995000000000000e+07,1.000000000000000000e+00
1.642759938380752087e+09,4.574476620649973313e+01,5.086202458147605299e+00,3.470000000000000000e+02,0.000000000000000000e+00,2.635915882968902793e+02,2.101994900000000000e+07,4.000000000000000000e+00
1.642759938580386639e+09,4.574475023573557309e+01,5.086204620855252045e+00,3.470000000000000000e+02,0.000000000000000000e+00,8.390701088905333904e+01,2.101995000000000000e+07,1.000000000000000000e+00
1.642759938580757141e+09,4.574475020609537523e+01,5.086204624869028024e+00,3.470000000000000000e+02,0.000000000000000000e+00,2.639075962829589912e+02,2.101994900000000000e+07,4.000000000000000000e+00
1.642759938780391693e+09,4.574473423533121519e+01,5.086206787576674770e+00,3.470000000000000000e+02,0.000000000000000000e+00,8.422301887512207941e+01,2.101995000000000000e+07,1.000000000000000000e+00
1.642759938780761719e+09,4.574473420572916638e+01,5.086206791585285991e+00,3.470000000000000000e+02,0.000000000000000000e+00,2.642236035156249727e+02,2.101994900000000000e+07,4.000000000000000000e+00
1.642759938980395794e+09,4.574471823500315537e+01,5.086208954287767092e+00,3.470000000000000000e+02,0.000000000000000000e+00,8.453902535438538735e+01,2.101995000000000000e+07,1.000000000000000000e+00
1.642759938980766535e+09,4.574471820534387945e+01,5.086208958304126782e+00,3.470000000000000000e+02,0.000000000000000000e+00,2.645396111249923479e+02,2.101994900000000000e+07,4.000000000000000000e+00
1.642759939180400848e+09,4.574470223459879747e+01,5.086211121009190705e+00,3.470000000000000000e+02,0.000000000000000000e+00,8.485503334045409929e+01,2.101995000000000000e+07,1.000000000000000000e+00
1.642759939180770636e+09,4.574470220501581963e+01,5.086211125015219103e+00,3.470000000000000000e+02,0.000000000000000000e+00,2.648556176042557126e+02,2.101994900000000000e+07,4.000000000000000000e+00
1.642759939380405664e+09,4.574468623421351055e+01,5.086213287728031496e+00,3.470000000000000000e+02,0.000000000000000000e+00,8.517104094982147444e+01,2.101995000000000000e+07,1.000000000000000000e+00
1.642759939380775690e+09,4.574468620461146173e+01,5.086213291736642717e+00,3.470000000000000000e+02,0.000000000000000000e+00,2.651716255903244246e+02,2.101994900000000000e+07,4.000000000000000000e+00
1.642759939580410004e+09,4.574467023386637266e+01,5.086215454441706640e+00,3.470000000000000000e+02,0.000000000000000000e+00,8.548704780578614759e+01,2.101995000000000000e+07,1.000000000000000000e+00
1.642759939580780029e+09,4.574467020426432384e+01,5.086215458450316973e+00,3.470000000000000000e+02,0.000000000000000000e+00,2.654876324462890693e+02,2.101994900000000000e+07,4.000000000000000000e+00
1.642759939780414820e+09,4.574465423348108573e+01,5.086217621160546543e+00,3.470000000000000000e+02,0.000000000000000000e+00,8.580305541515352274e+01,2.101995000000000000e+07,1.000000000000000000e+00
1.642759939780784369e+09,4.574465420391718595e+01,5.086217625163992118e+00,3.470000000000000000e+02,0.000000000000000000e+00,2.658036393022537140e+02,2.101994900000000000e+07,4.000000000000000000e+00
1.642759939980418921e+09,4.574463823315302591e+01,5.086219787871638864e+00,3.470000000000000000e+02,0.000000000000000000e+00,8.611906189441680226e+01,2.101995000000000000e+07,1.000000000000000000e+00
1.642759939980789661e+09,4.574463820349374998e+01,5.086219791887998554e+00,3.470000000000000000e+02,0.000000000000000000e+00,2.661196476650238196e+02,2.101994900000000000e+07,4.000000000000000000e+00
1.642759940180423737e+09,4.574462163135528669e+01,5.086221202824910748e+00,3.470000000000000000e+02,0.000000000000000000e+00,8.614097881317138672e+01,2.101995000000000000e+07,1.000000000000000000e+00
1.642759940180794239e+09,4.574462160048008030e+01,5.086221205294926939e+00,3.470000000000000000e+02,0.000000000000000000e+00,2.661409602880478360e+02,2.101994900000000000e+07,4.000000000000000000e+00
1.642759940380427837e+09,4.574460496434688395e+01,5.086222536185582399e+00,3.470000000000000000e+02,0.000000000000000000e+00,8.613097860813141438e+01,2.101995000000000000e+07,1.000000000000000000e+00
1.642759940380798101e+09,4.574460493349154433e+01,5.086222538654009639e+00,3.470000000000000000e+02,0.000000000000000000e+00,2.661309600949287528e+02,2.101994900000000000e+07,4.000000000000000000e+00
1.642759940580433369e+09,4.574458829721928055e+01,5.086223869555791310e+00,3.470000000000000000e+02,0.000000000000000000e+00,8.612097833156585125e+01,2.101995000000000000e+07,1.000000000000000000e+00
1.642759940580802679e+09,4.574458826644341514e+01,5.086223872017860081e+00,3.470000000000000000e+02,0.000000000000000000e+00,2.661209598660469169e+02,2.101994900000000000e+07,4.000000000000000000e+00
1.642759940780437946e+09,4.574457163017114425e+01,5.086225202919641752e+00,3.470000000000000000e+02,0.000000000000000000e+00,8.611097810268401531e+01,2.101995000000000000e+07,1.000000000000000000e+00
1.642759940780807495e+09,4.574457159937540496e+01,5.086225205383300363e+00,3.470000000000000000e+02,0.000000000000000000e+00,2.661109596252441634e+02,2.101994900000000000e+07,4.000000000000000000e+00
1.642759940980442524e+09,4.574455496312300795e+01,5.086226536283493083e+00,3.470000000000000000e+02,0.000000000000000000e+00,8.610097787380217937e+01,2.101995000000000000e+07,1.000000000000000000e+00
1.642759940980812550e+09,4.574455493228753511e+01,5.086226538750330484e+00,3.470000000000000000e+02,0.000000000000000000e+00,2.661009593725204354e+02,2.101994900000000000e+07,4.000000000000000000e+00
1.642759941180446386e+09,4.574453799539049470e+01,5.086228170386553060e+00,3.470000000000000000e+02,0.000000000000000000e+00,8.607293304204941364e+01,2.101995000000000000e+07,1.000000000000000000e+00
1.642759941180816650e+09,4.574453796391804872e+01,5.086228173472086667e+00,3.470000000000000000e+02,0.000000000000000000e+00,2.660728775024414290e+02,2.101994900000000000e+07,4.000000000000000000e+00
1.642759941380450964e+09,4.574452099500139468e+01,5.086229837091366335e+00,3.470000000000000000e+02,0.000000000000000000e+00,8.604293235540390583e+01,2.101995000000000000e+07,1.000000000000000000e+00
1.642759941380821466e+09,4.574452096350868402e+01,5.086229840178886796e+00,3.470000000000000000e+02,0.000000000000000000e+00,2.660428767800331116e+02,2.101994900000000000e+07,4.000000000000000000e+00
1.642759941580455542e+09,4.574450399461229466e+01,5.086231503796180498e+00,3.470000000000000000e+02,0.000000000000000000e+00,8.601293166875836960e+01,2.101995000000000000e+07,1.000000000000000000e+00
1.642759941580825567e+09,4.574450396316011336e+01,5.086231506879727249e+00,3.470000000000000000e+02,0.000000000000000000e+00,2.660128761649131661e+02,2.101994900000000000e+07,4.000000000000000000e+00
1.642759941780460119e+09,4.574448699422319464e+01,5.086233170500993772e+00,3.470000000000000000e+02,0.000000000000000000e+00,8.598293098211286178e+01,2.101995000000000000e+07,1.000000000000000000e+00
1.642759941780830622e+09,4.574448696273048398e+01,5.086233173588514234e+00,3.470000000000000000e+02,0.000000000000000000e+00,2.659828754067420959e+02,2.101994900000000000e+07,4.000000000000000000e+00
1.642759941980465412e+09,4.574446999377330059e+01,5.086234837211768500e+00,3.470000000000000000e+02,0.000000000000000000e+00,8.595293018817901043e+01,2.101995000000000000e+07,1.000000000000000000e+00
1.642759941980835676e+09,4.574446996230085460e+01,5.086234840297302107e+00,3.470000000000000000e+02,0.000000000000000000e+00,2.659528746485709689e+02,2.101994900000000000e+07,4.000000000000000000e+00
1.642759942180469275e+09,4.574445299344499460e+01,5.086236503910621209e+00,3.470000000000000000e+02,0.000000000000000000e+00,8.583810904979705469e+01,2.101995000000000000e+07,1.000000000000000000e+00
1.642759942180840015e+09,4.574445296193201926e+01,5.086236507000128526e+00,3.470000000000000000e+02,0.000000000000000000e+00,2.658378791904449372e+02,2.101994900000000000e+07,4.000000000000000000e+00
1.642759942380473852e+09,4.574443599305589458e+01,5.086238170615434484e+00,3.470000000000000000e+02,0.000000000000000000e+00,8.571410621166228339e+01,2.101995000000000000e+07,1.000000000000000000e+00
1.642759942380844593e+09,4.574443596154291924e+01,5.086238173704941801e+00,3.470000000000000000e+02,0.000000000000000000e+00,2.657138763523101943e+02,2.101994900000000000e+07,4.000000000000000000e+00
1.642759942580478907e+09,4.574441899262626521e+01,5.086239837324221469e+00,3.470000000000000000e+02,0.000000000000000000e+00,8.559010307788850014e+01,2.101995000000000000e+07,1.000000000000000000e+00
1.642759942580849409e+09,4.574441896113355455e+01,5.086239840411742819e+00,3.470000000000000000e+02,0.000000000000000000e+00,2.655898733663559028e+02,2.101994900000000000e+07,4.000000000000000000e+00
1.642759942780483961e+09,4.574440199219663583e+01,5.086241504033009342e+00,3.470000000000000000e+02,0.000000000000000000e+00,8.546609994411468847e+01,2.101995000000000000e+07,1.000000000000000000e+00
1.642759942780853748e+09,4.574440196076472631e+01,5.086241507114569238e+00,3.470000000000000000e+02,0.000000000000000000e+00,2.654658706760406517e+02,2.101994900000000000e+07,4.000000000000000000e+00
1.642759942980488539e+09,4.574438499180753581e+01,5.086243170737822616e+00,3.470000000000000000e+02,0.000000000000000000e+00,8.534209710597994558e+01,2.101995000000000000e+07,1.000000000000000000e+00
1.642759942980858564e+09,4.574438496035536161e+01,5.086243173821369368e+00,3.470000000000000000e+02,0.000000000000000000e+00,2.653418676900863602e+02,2.101994900000000000e+07,4.000000000000000000e+00
1.642759943180492878e+09,4.574436784102797304e+01,5.086245288672844644e+00,3.470000000000000000e+02,0.000000000000000000e+00,8.524968066930770760e+01,2.101995000000000000e+07,1.000000000000000000e+00
1.642759943180862665e+09,4.574436780928790114e+01,5.086245292678872154e+00,3.470000000000000000e+02,0.000000000000000000e+00,2.652495161139964921e+02,2.101994900000000000e+07,4.000000000000000000e+00
1.642759943380511045e+09,4.574435067280192868e+01,5.086247455536325290e+00,3.470000000000000000e+02,0.000000000000000000e+00,8.516067258477212931e+01,2.101995000000000000e+07,1.000000000000000000e+00
1.642759943380867004e+09,4.574435064224879000e+01,5.086247459392547299e+00,3.470000000000000000e+02,0.000000000000000000e+00,2.651605141830444836e+02,2.101994900000000000e+07,4.000000000000000000e+00
1.642759943580501795e+09,4.574433350692928002e+01,5.086249622102776868e+00,3.470000000000000000e+02,0.000000000000000000e+00,8.507167670130729675e+01,2.101995000000000000e+07,1.000000000000000000e+00
1.642759943580871582e+09,4.574433347518920812e+01,5.086249626108805266e+00,3.470000000000000000e+02,0.000000000000000000e+00,2.650715121459961097e+02,2.101994900000000000e+07,4.000000000000000000e+00
1.642759943780506849e+09,4.574431633982877088e+01,5.086251788824200482e+00,3.470000000000000000e+02,0.000000000000000000e+00,8.498267445206641924e+01,2.101995000000000000e+07,1.000000000000000000e+00
1.642759943780877113e+09,4.574431630804777171e+01,5.086251792835394525e+00,3.470000000000000000e+02,0.000000000000000000e+00,2.649825096845627286e+02,2.101994900000000000e+07,4.000000000000000000e+00
1.642759943980881214e+09,4.574429914102911710e+01,5.086253959546485959e+00,3.470000000000000000e+02,0.000000000000000000e+00,2.648935078597069150e+02,2.101994900000000000e+07,4.000000000000000000e+00
1.642759943980511427e+09,4.574429917276918900e+01,5.086253955540458449e+00,3.470000000000000000e+02,0.000000000000000000e+00,8.489367241501807371e+01,2.101995000000000000e+07,1.000000000000000000e+00
1.642759944180516005e+09,4.574428200570960712e+01,5.086256122256716417e+00,3.470000000000000000e+02,0.000000000000000000e+00,8.480467037796975660e+01,2.101995000000000000e+07,1.000000000000000000e+00
1.642759944180885553e+09,4.574428197398999885e+01,5.086256126260161103e+00,3.470000000000000000e+02,0.000000000000000000e+00,2.648045059287547929e+02,2.101994900000000000e+07,4.000000000000000000e+00
1.642759944380520821e+09,4.574426483862956161e+01,5.086258288975556319e+00,3.470000000000000000e+02,0.000000000000000000e+00,8.471566823482513087e+01,2.101995000000000000e+07,1.000000000000000000e+00
1.642759944380890608e+09,4.574426480688948971e+01,5.086258292981584717e+00,3.470000000000000000e+02,0.000000000000000000e+00,2.647155036795139722e+02,2.101994900000000000e+07,4.000000000000000000e+00
1.642759944580524921e+09,4.574424767161090699e+01,5.086260455686648640e+00,3.470000000000000000e+02,0.000000000000000000e+00,8.462666640996931733e+01,2.101995000000000000e+07,1.000000000000000000e+00
1.642759944580894709e+09,4.574424763987084219e+01,5.086260459692677038e+00,3.470000000000000000e+02,0.000000000000000000e+00,2.646265018546581587e+02,2.101994900000000000e+07,4.000000000000000000e+00
1.642759944780529737e+09,4.574423050453086859e+01,5.086262622405489431e+00,3.470000000000000000e+02,0.000000000000000000e+00,8.453766426682472002e+01,2.101995000000000000e+07,1.000000000000000000e+00
1.642759944780899525e+09,4.574423047279079668e+01,5.086262626411517829e+00,3.470000000000000000e+02,0.000000000000000000e+00,2.645374997115135329e+02,2.101994900000000000e+07,4.000000000000000000e+00
1.642759944980534077e+09,4.574421333749175034e+01,5.086264789119164575e+00,3.470000000000000000e+02,0.000000000000000000e+00,8.444866233587265469e+01,2.101995000000000000e+07,1.000000000000000000e+00
1.642759944980903864e+09,4.574421330575167843e+01,5.086264793125192085e+00,3.470000000000000000e+02,0.000000000000000000e+00,2.644484977805614108e+02,2.101994900000000000e+07,4.000000000000000000e+00
1.642759945180538893e+09,4.574419601996262941e+01,5.086266805388927281e+00,3.470000000000000000e+02,0.000000000000000000e+00,8.451221555709838640e+01,2.101995000000000000e+07,1.000000000000000000e+00
1.642759945180909395e+09,4.574419598785241448e+01,5.086266809093952013e+00,3.470000000000000000e+02,0.000000000000000000e+00,2.645123637580871900e+02,2.101994900000000000e+07,4.000000000000000000e+00
1.642759945380542994e+09,4.574417868627389083e+01,5.086268805429935647e+00,3.470000000000000000e+02,0.000000000000000000e+00,8.459221719741822199e+01,2.101995000000000000e+07,1.000000000000000000e+00
1.642759945380913258e+09,4.574417865418433848e+01,5.086268809132575619e+00,3.470000000000000000e+02,0.000000000000000000e+00,2.645923653030395144e+02,2.101994900000000000e+07,4.000000000000000000e+00
1.642759945580547571e+09,4.574416135254382709e+01,5.086270805475711754e+00,3.470000000000000000e+02,0.000000000000000000e+00,8.467221902847290949e+01,2.101995000000000000e+07,1.000000000000000000e+00
1.642759945580917597e+09,4.574416132047493733e+01,5.086270809175967855e+00,3.470000000000000000e+02,0.000000000000000000e+00,2.646723670387268044e+02,2.101994900000000000e+07,4.000000000000000000e+00
1.642759945780553102e+09,4.574414401873111302e+01,5.086272805531024233e+00,3.470000000000000000e+02,0.000000000000000000e+00,8.475222124099732923e+01,2.101995000000000000e+07,1.000000000000000000e+00
1.642759945780923128e+09,4.574414398666222326e+01,5.086272809231281222e+00,3.470000000000000000e+02,0.000000000000000000e+00,2.647523692512512525e+02,2.101994900000000000e+07,4.000000000000000000e+00
1.642759945980557442e+09,4.574412668502171186e+01,5.086274805574416469e+00,3.470000000000000000e+02,0.000000000000000000e+00,8.483222297668456235e+01,2.101995000000000000e+07,1.000000000000000000e+00
1.642759945980927706e+09,4.574412665293216662e+01,5.086274809277057329e+00,3.470000000000000000e+02,0.000000000000000000e+00,2.648323710823059400e+02,2.101994900000000000e+07,4.000000000000000000e+00
1.642759946180562019e+09,4.574410905035495745e+01,5.086277106556892136e+00,3.470000000000000000e+02,0.000000000000000000e+00,8.486888992309570767e+01,2.101995000000000000e+07,1.000000000000000000e+00
1.642759946180932045e+09,4.574410901766935922e+01,5.086277110873857588e+00,3.470000000000000000e+02,0.000000000000000000e+00,2.648689491271972543e+02,2.101994900000000000e+07,4.000000000000000000e+00
1.642759946180932045e+09,4.574410901766935922e+01,5.086277110873857588e+00,3.470000000000000000e+02,0.000000000000000000e+00,2.648689491271972543e+02,2.101994900000000000e+07,4.000000000000000000e+00
1.642759946180932045e+09,4.574410901766935922e+01,5.086277110873857588e+00,3.470000000000000000e+02,0.000000000000000000e+00,2.648689491271972543e+02,2.101994900000000000e+07,4.000000000000000000e+00
1.642759946380566835e+09,4.574409138326286950e+01,5.086279439946412850e+00,3.470000000000000000e+02,0.000000000000000000e+00,8.490089069366456442e+01,2.101995000000000000e+07,1.000000000000000000e+00
1.642759946380936623e+09,4.574409135059833176e+01,5.086279444260597415e+00,3.470000000000000000e+02,0.000000000000000000e+00,2.649009498596191179e+02,2.101994900000000000e+07,4.000000000000000000e+00
1.642759946580570936e+09,4.574407371623397012e+01,5.086281773327589129e+00,3.470000000000000000e+02,0.000000000000000000e+00,8.493289134979247024e+01,2.101995000000000000e+07,1.000000000000000000e+00
1.642759946580941439e+09,4.574407368350625092e+01,5.086281777650118130e+00,3.470000000000000000e+02,0.000000000000000000e+00,2.649329506301879746e+02,2.101994900000000000e+07,4.000000000000000000e+00
1.642759946780575752e+09,4.574405604914188217e+01,5.086284106717109843e+00,3.470000000000000000e+02,0.000000000000000000e+00,8.496489212036132699e+01,2.101995000000000000e+07,1.000000000000000000e+00
1.642759946780946016e+09,4.574405601643522346e+01,5.086284111036857070e+00,3.470000000000000000e+02,0.000000000000000000e+00,2.649649513626098951e+02,2.101994900000000000e+07,4.000000000000000000e+00
1.642759946980580807e+09,4.574403838202874084e+01,5.086286440109412332e+00,3.470000000000000000e+02,0.000000000000000000e+00,8.499689292907714844e+01,2.101995000000000000e+07,1.000000000000000000e+00
1.642759946980949879e+09,4.574403834942738456e+01,5.086286444415251573e+00,3.470000000000000000e+02,0.000000000000000000e+00,2.649969519805907794e+02,2.101994900000000000e+07,4.000000000000000000e+00
1.642759947180584431e+09,4.574402101601600634e+01,5.086288472510974046e+00,3.470000000000000000e+02,0.000000000000000000e+00,8.500000000000000000e+01,2.101995000000000000e+07,1.000000000000000000e+00
1.642759947180954695e+09,4.574402098392645399e+01,5.086288476213614906e+00,3.470000000000000000e+02,0.000000000000000000e+00,2.650000000000000000e+02,2.101994900000000000e+07,4.000000000000000000e+00
1.642759947380589962e+09,4.574400368220329227e+01,5.086290472566287413e+00,3.470000000000000000e+02,0.000000000000000000e+00,8.500000000000000000e+01,2.101995000000000000e+07,1.000000000000000000e+00
1.642759947380959511e+09,4.574400365017572767e+01,5.086290476261774884e+00,3.470000000000000000e+02,0.000000000000000000e+00,2.650000000000000000e+02,2.101994900000000000e+07,4.000000000000000000e+00
1.642759947580594540e+09,4.574398634847322853e+01,5.086292472612063520e+00,3.470000000000000000e+02,0.000000000000000000e+00,8.500000000000000000e+01,2.101995000000000000e+07,1.000000000000000000e+00
1.642759947580964565e+09,4.574398631640433877e+01,5.086292476312319621e+00,3.470000000000000000e+02,0.000000000000000000e+00,2.650000000000000000e+02,2.101994900000000000e+07,4.000000000000000000e+00
1.642759947780598879e+09,4.574396901476382737e+01,5.086294472655455756e+00,3.470000000000000000e+02,0.000000000000000000e+00,8.500000000000000000e+01,2.101995000000000000e+07,1.000000000000000000e+00
1.642759947780968904e+09,4.574396898269494471e+01,5.086294476355711858e+00,3.470000000000000000e+02,0.000000000000000000e+00,2.650000000000000000e+02,2.101994900000000000e+07,4.000000000000000000e+00
1.642759947980603456e+09,4.574395168103377074e+01,5.086296472701231863e+00,3.470000000000000000e+02,0.000000000000000000e+00,8.500000000000000000e+01,2.101995000000000000e+07,1.000000000000000000e+00
1.642759947980973721e+09,4.574395164894421839e+01,5.086296476403871836e+00,3.470000000000000000e+02,0.000000000000000000e+00,2.650000000000000000e+02,2.101994900000000000e+07,4.000000000000000000e+00
1.642759948180608273e+09,4.574393419677615213e+01,5.086298623256285900e+00,3.470000000000000000e+02,0.000000000000000000e+00,8.497471484184265478e+01,2.101995000000000000e+07,1.000000000000000000e+00
1.642759948180978298e+09,4.574393416439890814e+01,5.086298627264897121e+00,3.470000000000000000e+02,0.000000000000000000e+00,2.649746630382537660e+02,2.101994900000000000e+07,4.000000000000000000e+00
1.642759948380612373e+09,4.574391669641732960e+01,5.086300789967378222e+00,3.470000000000000000e+02,0.000000000000000000e+00,8.494671426773072653e+01,2.101995000000000000e+07,1.000000000000000000e+00
1.642759948380982637e+09,4.574391666401922407e+01,5.086300793978572266e+00,3.470000000000000000e+02,0.000000000000000000e+00,2.649466624307632401e+02,2.101994900000000000e+07,4.000000000000000000e+00
1.642759948580616713e+09,4.574389919603764554e+01,5.086302956681053367e+00,3.470000000000000000e+02,0.000000000000000000e+00,8.491871366024017220e+01,2.101995000000000000e+07,1.000000000000000000e+00
1.642759948580987692e+09,4.574389916357696251e+01,5.086302960699995879e+00,3.470000000000000000e+02,0.000000000000000000e+00,2.649186617231368928e+02,2.101994900000000000e+07,4.000000000000000000e+00
1.642759948780622005e+09,4.574388169557452244e+01,5.086305123405058914e+00,3.470000000000000000e+02,0.000000000000000000e+00,8.489071291923522722e+01,2.101995000000000000e+07,1.000000000000000000e+00
1.642759948780991316e+09,4.574388166325986305e+01,5.086305127405921667e+00,3.470000000000000000e+02,0.000000000000000000e+00,2.648906612157821883e+02,2.101994900000000000e+07,4.000000000000000000e+00
1.642759948980625868e+09,4.574386419523656144e+01,5.086307290113568413e+00,3.470000000000000000e+02,0.000000000000000000e+00,8.486271237850189664e+01,2.101995000000000000e+07,1.000000000000000000e+00
1.642759948980996132e+09,4.574386416283845591e+01,5.086307294124762457e+00,3.470000000000000000e+02,0.000000000000000000e+00,2.648626605415344102e+02,2.101994900000000000e+07,4.000000000000000000e+00
1.642759949180630445e+09,4.574384669483601584e+01,5.086309456829826381e+00,3.470000000000000000e+02,0.000000000000000000e+00,8.483471173763274464e+01,2.101995000000000000e+07,1.000000000000000000e+00
1.642759949181000710e+09,4.574384666243791742e+01,5.086309460841020424e+00,3.470000000000000000e+02,0.000000000000000000e+00,2.648346599006653150e+02,2.101994900000000000e+07,4.000000000000000000e+00
1.642759949380635977e+09,4.574382919435203121e+01,5.086311623556415640e+00,3.470000000000000000e+02,0.000000000000000000e+00,8.480671096324920200e+01,2.101995000000000000e+07,1.000000000000000000e+00
1.642759949381005287e+09,4.574382916203737182e+01,5.086311627557278392e+00,3.470000000000000000e+02,0.000000000000000000e+00,2.648066592597961062e+02,2.101994900000000000e+07,4.000000000000000000e+00
1.642759949580639839e+09,4.574381169401407021e+01,5.086313790264924251e+00,3.470000000000000000e+02,0.000000000000000000e+00,8.477871042251587141e+01,2.101995000000000000e+07,1.000000000000000000e+00
1.642759949581010103e+09,4.574381166161596468e+01,5.086313794276118294e+00,3.470000000000000000e+02,0.000000000000000000e+00,2.647786585855484418e+02,2.101994900000000000e+07,4.000000000000000000e+00
1.642759949780644417e+09,4.574379419361353172e+01,5.086315956981182218e+00,3.470000000000000000e+02,0.000000000000000000e+00,8.475070978164671942e+01,2.101995000000000000e+07,1.000000000000000000e+00
1.642759949781015158e+09,4.574379416117370312e+01,5.086315960997541907e+00,3.470000000000000000e+02,0.000000000000000000e+00,2.647506578779220945e+02,2.101994900000000000e+07,4.000000000000000000e+00
1.642759949980649710e+09,4.574377669315040151e+01,5.086318123705188654e+00,3.470000000000000000e+02,0.000000000000000000e+00,8.472270904064177444e+01,2.101995000000000000e+07,1.000000000000000000e+00
1.642759949981019258e+09,4.574377666081488059e+01,5.086318127708634229e+00,3.470000000000000000e+02,0.000000000000000000e+00,2.647226573038101378e+02,2.101994900000000000e+07,4.000000000000000000e+00
1.642759950180654287e+09,4.574375904220461564e+01,5.086320139876207236e+00,3.470000000000000000e+02,0.000000000000000000e+00,8.476155048608779907e+01,2.101995000000000000e+07,1.000000000000000000e+00
1.642759950181024551e+09,4.574375900949795692e+01,5.086320143578847208e+00,3.470000000000000000e+02,0.000000000000000000e+00,2.647616356468200820e+02,2.101994900000000000e+07,4.000000000000000000e+00
1.642759950380658865e+09,4.574374137513359528e+01,5.086322139921983343e+00,3.470000000000000000e+02,0.000000000000000000e+00,8.480755153894423870e+01,2.101995000000000000e+07,1.000000000000000000e+00
1.642759950381028414e+09,4.574374134249011803e+01,5.086322143617471703e+00,3.470000000000000000e+02,0.000000000000000000e+00,2.648076365351677168e+02,2.101994900000000000e+07,4.000000000000000000e+00
1.642759950580662966e+09,4.574372370810468880e+01,5.086324139962990820e+00,3.470000000000000000e+02,0.000000000000000000e+00,8.485355248212812285e+01,2.101995000000000000e+07,1.000000000000000000e+00
1.642759950581033468e+09,4.574372367537696960e+01,5.086324143668015552e+00,3.470000000000000000e+02,0.000000000000000000e+00,2.648536376976966835e+02,2.101994900000000000e+07,4.000000000000000000e+00
1.642759950780667782e+09,4.574370604101260795e+01,5.086326140011151686e+00,3.470000000000000000e+02,0.000000000000000000e+00,8.489955358982084022e+01,2.101995000000000000e+07,1.000000000000000000e+00
1.642759950781037569e+09,4.574370600834807021e+01,5.086326143709023917e+00,3.470000000000000000e+02,0.000000000000000000e+00,2.648996386408805392e+02,2.101994900000000000e+07,4.000000000000000000e+00
1.642759950980671883e+09,4.574368837398370147e+01,5.086328140052160052e+00,3.470000000000000000e+02,0.000000000000000000e+00,8.494555453300475278e+01,2.101995000000000000e+07,1.000000000000000000e+00
1.642759950981042624e+09,4.574368834123492178e+01,5.086328143759568654e+00,3.470000000000000000e+02,0.000000000000000000e+00,2.649456398034095628e+02,2.101994900000000000e+07,4.000000000000000000e+00
1.642759951180676937e+09,4.574367100799878472e+01,5.086330140102703901e+00,3.470000000000000000e+02,0.000000000000000000e+00,8.498071507930754365e+01,2.101995000000000000e+07,1.000000000000000000e+00
1.642759951181046724e+09,4.574367097595055753e+01,5.086330143800576131e+00,3.470000000000000000e+02,0.000000000000000000e+00,2.649807779431342851e+02,2.101994900000000000e+07,4.000000000000000000e+00
1.642759951380681515e+09,4.574365367426872098e+01,5.086332140148480896e+00,3.470000000000000000e+02,0.000000000000000000e+00,8.501471585750579152e+01,2.101995000000000000e+07,1.000000000000000000e+00
1.642759951381051540e+09,4.574365364219983832e+01,5.086332143848736997e+00,3.470000000000000000e+02,0.000000000000000000e+00,2.650147787618636812e+02,2.101994900000000000e+07,4.000000000000000000e+00
1.642759951580685854e+09,4.574363634055932692e+01,5.086334140191873132e+00,3.470000000000000000e+02,0.000000000000000000e+00,8.504871659517289118e+01,2.101995000000000000e+07,1.000000000000000000e+00
1.642759951581056356e+09,4.574363630844911199e+01,5.086334143896897864e+00,3.470000000000000000e+02,0.000000000000000000e+00,2.650487795805930773e+02,2.101994900000000000e+07,4.000000000000000000e+00
1.642759951780691385e+09,4.574361900674661285e+01,5.086336140247185611e+00,3.470000000000000000e+02,0.000000000000000000e+00,8.508271753549576033e+01,2.101995000000000000e+07,1.000000000000000000e+00
1.642759951781060457e+09,4.574361897476037342e+01,5.086336143937905341e+00,3.470000000000000000e+02,0.000000000000000000e+00,2.650827802777290572e+02,2.101994900000000000e+07,4.000000000000000000e+00
1.642759951980695486e+09,4.574360167305787428e+01,5.086338140288193976e+00,3.470000000000000000e+02,0.000000000000000000e+00,8.511671823263168335e+01,2.101995000000000000e+07,1.000000000000000000e+00
1.642759951981065512e+09,4.574360164098898451e+01,5.086338143988450078e+00,3.470000000000000000e+02,0.000000000000000000e+00,2.651167811369896299e+02,2.101994900000000000e+07,4.000000000000000000e+00
1.642759952180700064e+09,4.574358403816103902e+01,5.086340441500743381e+00,3.470000000000000000e+02,0.000000000000000000e+00,8.510373699426651228e+01,2.101995000000000000e+07,1.000000000000000000e+00
1.642759952181070328e+09,4.574358400545438030e+01,5.086340445820490608e+00,3.470000000000000000e+02,0.000000000000000000e+00,2.651037036705017158e+02,2.101994900000000000e+07,4.000000000000000000e+00
1.642759952380704880e+09,4.574356637106895818e+01,5.086342774890264096e+00,3.470000000000000000e+02,0.000000000000000000e+00,8.508573656082154457e+01,2.101995000000000000e+07,1.000000000000000000e+00
1.642759952381074429e+09,4.574356633842548092e+01,5.086342779201665998e+00,3.470000000000000000e+02,0.000000000000000000e+00,2.650857033014297599e+02,2.101994900000000000e+07,4.000000000000000000e+00
1.642759952580709457e+09,4.574354870399793072e+01,5.086345108277003035e+00,3.470000000000000000e+02,0.000000000000000000e+00,8.506773614883422852e+01,2.101995000000000000e+07,1.000000000000000000e+00
1.642759952581079006e+09,4.574354867135445346e+01,5.086345112588405826e+00,3.470000000000000000e+02,0.000000000000000000e+00,2.650677028894424438e+02,2.101994900000000000e+07,4.000000000000000000e+00
1.642759952780713558e+09,4.574353103696903133e+01,5.086347441658179314e+00,3.470000000000000000e+02,0.000000000000000000e+00,8.504973577976227261e+01,2.101995000000000000e+07,1.000000000000000000e+00
1.642759952781083584e+09,4.574353100428343311e+01,5.086347445975144765e+00,3.470000000000000000e+02,0.000000000000000000e+00,2.650497024774551278e+02,2.101994900000000000e+07,4.000000000000000000e+00
1.642759952980718851e+09,4.574351336983482241e+01,5.086349775053262690e+00,3.470000000000000000e+02,0.000000000000000000e+00,8.503173530340194475e+01,2.101995000000000000e+07,1.000000000000000000e+00
1.642759952981088638e+09,4.574351333717028467e+01,5.086349779367447255e+00,3.470000000000000000e+02,0.000000000000000000e+00,2.650317020225525084e+02,2.101994900000000000e+07,4.000000000000000000e+00
1.642759953181093693e+09,4.574349567005714334e+01,5.086351810936927897e+00,3.470000000000000000e+02,0.000000000000000000e+00,2.650462984323501701e+02,2.101994900000000000e+07,4.000000000000000000e+00
1.642759953180723429e+09,4.574349570276380206e+01,5.086351807234287925e+00,3.470000000000000000e+02,0.000000000000000000e+00,8.504626510858537358e+01,2.101995000000000000e+07,1.000000000000000000e+00
1.642759953380727768e+09,4.574347803571383508e+01,5.086353807277679273e+00,3.470000000000000000e+02,0.000000000000000000e+00,8.506426549911498114e+01,2.101995000000000000e+07,1.000000000000000000e+00
1.642759953381098270e+09,4.574347800298611588e+01,5.086353810982704005e+00,3.470000000000000000e+02,0.000000000000000000e+00,2.650642988443374861e+02,2.101994900000000000e+07,4.000000000000000000e+00
1.642759953580731869e+09,4.574346036868492860e+01,5.086355807318687638e+00,3.470000000000000000e+02,0.000000000000000000e+00,8.508226586818696546e+01,2.101995000000000000e+07,1.000000000000000000e+00
1.642759953581102610e+09,4.574346033593614891e+01,5.086355811026096241e+00,3.470000000000000000e+02,0.000000000000000000e+00,2.650822992348670937e+02,2.101994900000000000e+07,4.000000000000000000e+00
1.642759953780736446e+09,4.574344270161390824e+01,5.086357807364463746e+00,3.470000000000000000e+02,0.000000000000000000e+00,8.510026628017425310e+01,2.101995000000000000e+07,1.000000000000000000e+00
1.642759953781106710e+09,4.574344266890724953e+01,5.086357811067104606e+00,3.470000000000000000e+02,0.000000000000000000e+00,2.651002996039390496e+02,2.101994900000000000e+07,4.000000000000000000e+00
1.642759953980741739e+09,4.574342503447969932e+01,5.086359807417392354e+00,3.470000000000000000e+02,0.000000000000000000e+00,8.511826675653458096e+01,2.101995000000000000e+07,1.000000000000000000e+00
1.642759953981111050e+09,4.574342500185728255e+01,5.086359811110496842e+00,3.470000000000000000e+02,0.000000000000000000e+00,2.651182999944686571e+02,2.101994900000000000e+07,4.000000000000000000e+00
1.642759954180745840e+09,4.574340736745079283e+01,5.086361807458400719e+00,3.470000000000000000e+02,0.000000000000000000e+00,8.513626712560653687e+01,2.101995000000000000e+07,1.000000000000000000e+00
1.642759954181116581e+09,4.574340733470202025e+01,5.086361811165809321e+00,3.470000000000000000e+02,0.000000000000000000e+00,2.651363004922866935e+02,2.101994900000000000e+07,4.000000000000000000e+00
1.642759954380750418e+09,4.574338970037977248e+01,5.086363807504176826e+00,3.470000000000000000e+02,0.000000000000000000e+00,8.515426753759385292e+01,2.101995000000000000e+07,1.000000000000000000e+00
1.642759954381121159e+09,4.574338966763099279e+01,5.086363811211585428e+00,3.470000000000000000e+02,0.000000000000000000e+00,2.651543009042740096e+02,2.101994900000000000e+07,4.000000000000000000e+00
1.642759954580754995e+09,4.574337203330874502e+01,5.086365807549952933e+00,3.470000000000000000e+02,0.000000000000000000e+00,8.517226794958114056e+01,2.101995000000000000e+07,1.000000000000000000e+00
1.642759954581125021e+09,4.574337200062314679e+01,5.086365811250209923e+00,3.470000000000000000e+02,0.000000000000000000e+00,2.651723012518882570e+02,2.101994900000000000e+07,4.000000000000000000e+00
1.642759954780759811e+09,4.574335436621666418e+01,5.086367807598113799e+00,3.470000000000000000e+02,0.000000000000000000e+00,8.519026838302613669e+01,2.101995000000000000e+07,1.000000000000000000e+00
1.642759954781130075e+09,4.574335433351000546e+01,5.086367811300754660e+00,3.470000000000000000e+02,0.000000000000000000e+00,2.651903017067909332e+02,2.101994900000000000e+07,4.000000000000000000e+00
1.642759954980764866e+09,4.574333669910351574e+01,5.086369807648658536e+00,3.470000000000000000e+02,0.000000000000000000e+00,8.520826883792878448e+01,2.101995000000000000e+07,1.000000000000000000e+00
1.642759954981134176e+09,4.574333666648109897e+01,5.086369811341762137e+00,3.470000000000000000e+02,0.000000000000000000e+00,2.652083020758628891e+02,2.101994900000000000e+07,4.000000000000000000e+00
1.642759955180768967e+09,4.574331873079299982e+01,5.086371807689666014e+00,3.470000000000000000e+02,0.000000000000000000e+00,8.518469234466553530e+01,2.101995000000000000e+07,1.000000000000000000e+00
1.642759955181139708e+09,4.574331869742631795e+01,5.086371811397075504e+00,3.470000000000000000e+02,0.000000000000000000e+00,2.651846404409408251e+02,2.101994900000000000e+07,4.000000000000000000e+00
1.642759955380773783e+09,4.574330073035955735e+01,5.086373807737826880e+00,3.470000000000000000e+02,0.000000000000000000e+00,8.515669167041778564e+01,2.101995000000000000e+07,1.000000000000000000e+00
1.642759955381144047e+09,4.574330069703579227e+01,5.086373811440467740e+00,3.470000000000000000e+02,0.000000000000000000e+00,2.651566398334502992e+02,2.101994900000000000e+07,4.000000000000000000e+00
1.642759955580778599e+09,4.574328272992610778e+01,5.086375807785987746e+00,3.470000000000000000e+02,0.000000000000000000e+00,8.512869099617003599e+01,2.101995000000000000e+07,1.000000000000000000e+00
1.642759955581148148e+09,4.574328269666671787e+01,5.086375811481476106e+00,3.470000000000000000e+02,0.000000000000000000e+00,2.651286392593383425e+02,2.101994900000000000e+07,4.000000000000000000e+00
1.642759955780782700e+09,4.574326472955704048e+01,5.086377807826996111e+00,3.470000000000000000e+02,0.000000000000000000e+00,8.510069042205810774e+01,2.101995000000000000e+07,1.000000000000000000e+00
1.642759955781152725e+09,4.574326469625473379e+01,5.086377811527252213e+00,3.470000000000000000e+02,0.000000000000000000e+00,2.651006386184692474e+02,2.101994900000000000e+07,4.000000000000000000e+00
1.642759955980787992e+09,4.574324672908068123e+01,5.086379807879924719e+00,3.470000000000000000e+02,0.000000000000000000e+00,8.507268968105316276e+01,2.101995000000000000e+07,1.000000000000000000e+00
1.642759955981157541e+09,4.574324669582128422e+01,5.086379811575413079e+00,3.470000000000000000e+02,0.000000000000000000e+00,2.650726379442214693e+02,2.101994900000000000e+07,4.000000000000000000e+00
